全国地方公共団体コード,ID,地方公共団体名,名称,名称_カナ,名称_英字,名称_通称,外部識別子,外部識別子の値,所在地_全国地方公共団体コード,町字ID,所在地_連結表記,所在地_都道府県,所在地_市区町村,所在地_町字,所在地_番地以下,建物名等(方書),緯度,経度,高度の種別,高度の値,電話番号,内線番号,連絡先メールアドレス,連絡先FormURL,連絡先備考（その他、SNSなど）,郵便番号,URL,画像,画像_ライセンス,備考
122033,,市川市,国府台病院前,ｺｳﾉﾀﾞｲﾋﾞｮｳｲﾝﾏｴ,,,,,122033,,千葉県市川市国府台1丁目7-1,千葉県,市川市,国府台1丁目,7-1,,35.746934,139.90589,,,,,,,,,,,,
122033,,市川市,東京歯科大学市川総合病院前,ﾄｳｷｮｳｼｶﾀﾞｲｶﾞｸｲﾁｶﾜｿｳｺﾞｳﾋﾞｮｳｲﾝﾏｴ,,,,,122033,,千葉県市川市菅野5丁目11-13,千葉県,市川市,菅野5丁目,11-13,,35.7335845,139.9224139,,,,,,,,,,,,
122033,,市川市,大野中央病院前,ｵｵﾉﾁｭｳｵｳﾋﾞｮｳｲﾝﾏｴ,,,,,122033,,千葉県市川市下貝塚3丁目3-20,千葉県,市川市,下貝塚3丁目,3-20,,35.74013,139.94921,,,,,,,,,,,,
122033,,市川市,大洲防災公園,ｵｵｽﾎﾞｳｻｲｺｳｴﾝ,,,,,122033,,千葉県市川市大洲1丁目18-1,千葉県,市川市,大洲1丁目,18-1,,35.71834,139.91042,,,,,,,,,,,,
122033,,市川市,行徳総合病院前,ｷﾞｮｳﾄｸｿｳｺﾞｳﾋﾞｮｳｲﾝﾏｴ,,,,,122033,,千葉県市川市本行徳5525-2,千葉県,市川市,本行徳,5525-2,,35.67979,139.93153,,,,,,,,,,,,
122271,,浦安市,東京ベイ・浦安市川医療センター前,ﾄｳｷｮｳﾍﾞｲ･ｳﾗﾔｽｲﾁｶﾜｲﾘｮｳｾﾝﾀｰﾏｴ,,,,,122271,,千葉県浦安市当代島3丁目4-32,千葉県,浦安市,当代島3丁目,4-32,,35.67116,139.89335,,,,,,,,,,,,
